{
  "type": "FeatureCollection",
  "features": [
      { "type": "Feature", "geometry": { "type": "Point", "coordinates": [2.1064115174131994, 41.344729421498144] }, "properties": { "type": "METRO", "line": "L1", "name": "HOSPITAL DE BELLVITGE" }},
      { "type": "Feature", "geometry": { "type": "Point", "coordinates": [2.10990044394329, 41.351536228563305] }, "properties": { "type": "METRO", "line": "L1", "name": "BELLVITGE" }},
      { "type": "Feature", "geometry": { "type": "Point", "coordinates": [2.1026719363069075, 41.35741392583299] }, "properties": { "type": "METRO", "line": "L1", "name": "AVINGUDA CARRILET" }},
    { "type": "Feature", "geometry": { "type": "Point", "coordinates": [2.099720795414203, 41.36366931030005] }, "properties": { "type": "METRO", "line": "L1", "name": "RAMBLA JUST OLIVERAS" }},
    { "type": "Feature", "geometry": { "type": "Point", "coordinates": [2.103237123448869, 41.367656549619376] }, "properties": { "type": "METRO", "line": "L1", "name": "CAN SERRA" }},
    { "type": "Feature", "geometry": { "type": "Point", "coordinates": [2.1103983831445907, 41.36788261034843] }, "properties": { "type": "METRO", "line": "L1", "name": "FLORIDA" }},
    { "type": "Feature", "geometry": { "type": "Point", "coordinates": [2.1165005614326264, 41.36830002959065] }, "properties": { "type": "METRO", "line": "L1", "name": "TORRASSA" }},
    { "type": "Feature", "geometry": { "type": "Point", "coordinates": [2.128700249487688, 41.3684523810948] }, "properties": { "type": "METRO", "line": "L1", "name": "SANTA EULÀLIA" }},
    { "type": "Feature", "geometry": { "type": "Point", "coordinates": [2.134033769887964, 41.37355257505901] }, "properties": { "type": "METRO", "line": "L1", "name": "MERCAT NOU" }},
    { "type": "Feature", "geometry": { "type": "Point", "coordinates": [2.138495928519069, 41.37555171489993] }, "properties": { "type": "METRO", "line": "L1", "name": "PLAÇA DE SANTS" }},
    { "type": "Feature", "geometry": { "type": "Point", "coordinates": [2.143993685883448, 41.37530103065407] }, "properties": { "type": "METRO", "line": "L1", "name": "HOSTAFRANCS" }},
    { "type": "Feature", "geometry": { "type": "Point", "coordinates": [2.14880315861726, 41.37538914994662] }, "properties": { "type": "METRO", "line": "L1", "name": "ESPANYA" }},
    { "type": "Feature", "geometry": { "type": "Point", "coordinates": [2.154458829202931, 41.37915867062781] }, "properties": { "type": "METRO", "line": "L1", "name": "ROCAFORT" }},
    { "type": "Feature", "geometry": { "type": "Point", "coordinates": [2.1590005563069985, 41.38246663059239] }, "properties": { "type": "METRO", "line": "L1", "name": "URGELL" }},
    { "type": "Feature", "geometry": { "type": "Point", "coordinates": [2.164165294708132, 41.38556031873351] }, "properties": { "type": "METRO", "line": "L1", "name": "UNIVERSITAT" }},
    { "type": "Feature", "geometry": { "type": "Point", "coordinates": [2.169509918633687, 41.38763432574223] }, "properties": { "type": "METRO", "line": "L1", "name": "CATALUNYA" }},
    { "type": "Feature", "geometry": { "type": "Point", "coordinates": [2.1730926890619284, 41.389529267238245] }, "properties": { "type": "METRO", "line": "L1", "name": "URQUINAONA" }},
    { "type": "Feature", "geometry": { "type": "Point", "coordinates": [2.180063901543007, 41.39239609836004] }, "properties": { "type": "METRO", "line": "L1", "name": "ARC DE TRIOMF" }},
    { "type": "Feature", "geometry": { "type": "Point", "coordinates": [2.186844744919792, 41.39558333863722] }, "properties": { "type": "METRO", "line": "L1", "name": "MARINA" }},
    { "type": "Feature", "geometry": { "type": "Point", "coordinates": [2.1875152217557448, 41.402707913413394] }, "properties": { "type": "METRO", "line": "L1", "name": "GLÒRIES" }},
    { "type": "Feature", "geometry": { "type": "Point", "coordinates": [2.187533054468753, 41.41122717519894] }, "properties": { "type": "METRO", "line": "L1", "name": "CLOT" }},
    { "type": "Feature", "geometry": { "type": "Point", "coordinates": [2.187088376896928, 41.416165104455565] }, "properties": { "type": "METRO", "line": "L1", "name": "NAVAS" }},
    { "type": "Feature", "geometry": { "type": "Point", "coordinates": [2.186936943588096, 41.421420128727945] }, "properties": { "type": "METRO", "line": "L1", "name": "LA SAGRERA" }},
    { "type": "Feature", "geometry": { "type": "Point", "coordinates": [2.183326561055759, 41.43046839524972] }, "properties": { "type": "METRO", "line": "L1", "name": "FABRA I PUIG" }},
    { "type": "Feature", "geometry": { "type": "Point", "coordinates": [2.190749818863545, 41.4373338327384] }, "properties": { "type": "METRO", "line": "L1", "name": "SANT ANDREU" }},
    { "type": "Feature", "geometry": { "type": "Point", "coordinates": [2.190667803928558, 41.44381638759569] }, "properties": { "type": "METRO", "line": "L1", "name": "TORRAS I BAGES" }},
    { "type": "Feature", "geometry": { "type": "Point", "coordinates": [2.182744792818884, 41.44923547315545] }, "properties": { "type": "METRO", "line": "L1", "name": "TRINITAT VELLA" }},
    { "type": "Feature", "geometry": { "type": "Point", "coordinates": [2.1996659250064075, 41.44990541011909] }, "properties": { "type": "METRO", "line": "L1", "name": "BARÓ DE VIVER" }},
    { "type": "Feature", "geometry": { "type": "Point", "coordinates": [2.2071631887081646, 41.451453481446] }, "properties": { "type": "METRO", "line": "L1", "name": "SANTA COLOMA" }},
    { "type": "Feature", "geometry": { "type": "Point", "coordinates": [2.2170668923426136, 41.45177007057777] }, "properties": { "type": "METRO", "line": "L1", "name": "FONDO" }},

    {"type": "Feature", "geometry": {"type": "Point", "coordinates": [2.167581431967113, 41.37510069226224]}, "properties": {"type": "METRO", "line": "L2", "name": "PARAL·LEL"}},
    {"type": "Feature", "geometry": {"type": "Point", "coordinates": [2.1630177408853455, 41.37996245817153]}, "properties": {"type": "METRO", "line": "L2", "name": "SANT ANTONI"}},
    {"type": "Feature", "geometry": {"type": "Point", "coordinates": [2.1632543432475972, 41.38502492641775]}, "properties": {"type": "METRO", "line": "L2", "name": "UNIVERSITAT"}},
    {"type": "Feature", "geometry": {"type": "Point", "coordinates": [2.168332839441089, 41.38954251126039]}, "properties": {"type": "METRO", "line": "L2", "name": "PASSEIG DE GRÀCIA"}},
    {"type": "Feature", "geometry": {"type": "Point", "coordinates": [2.1745933931711248, 41.39463370568517]}, "properties": {"type": "METRO", "line": "L2", "name": "TETUAN"}},
    {"type": "Feature", "geometry": {"type": "Point", "coordinates": [2.180039956117605, 41.40009650219717]}, "properties": {"type": "METRO", "line": "L2", "name": "MONUMENTAL"}},
    {"type": "Feature", "geometry": {"type": "Point", "coordinates": [2.1763176709301346, 41.40426618952202]}, "properties": {"type": "METRO", "line": "L2", "name": "SAGRADA FAMÍLIA"}},
    {"type": "Feature", "geometry": {"type": "Point", "coordinates": [2.1825600197345625, 41.40734770486102]}, "properties": {"type": "METRO", "line": "L2", "name": "ENCANTS"}},
    {"type": "Feature", "geometry": {"type": "Point", "coordinates": [2.1865570036639186, 41.41010979393296]}, "properties": {"type": "METRO", "line": "L2", "name": "CLOT"}},
    {"type": "Feature", "geometry": {"type": "Point", "coordinates": [2.195015157318397, 41.415292090006915]}, "properties": {"type": "METRO", "line": "L2", "name": "BAC DE RODA"}},
    {"type": "Feature", "geometry": {"type": "Point", "coordinates": [2.200603658506352, 41.41931557842177]}, "properties": {"type": "METRO", "line": "L2", "name": "SANT MARTÍ"}},
    {"type": "Feature", "geometry": {"type": "Point", "coordinates": [2.2066916481415157, 41.42383621252897]}, "properties": {"type": "METRO", "line": "L2", "name": "LA PAU"}},
    {"type": "Feature", "geometry": {"type": "Point", "coordinates": [2.209634905525907, 41.430308879013694]}, "properties": {"type": "METRO", "line": "L2", "name": "VERNEDA"}},
    {"type": "Feature", "geometry": {"type": "Point", "coordinates": [2.2168050533555337, 41.43388850425456]}, "properties": {"type": "METRO", "line": "L2", "name": "ARTIGUES SANT ADRIÀ"}},
    {"type": "Feature", "geometry": {"type": "Point", "coordinates": [2.227786668411125, 41.43552559216171]}, "properties": {"type": "METRO", "line": "L2", "name": "SANT ROC"}},
    {"type": "Feature", "geometry": {"type": "Point", "coordinates": [2.2337943359641117, 41.44016396740645]}, "properties": {"type": "METRO", "line": "L2", "name": "GORG"}},
    {"type": "Feature", "geometry": {"type": "Point", "coordinates": [2.2382125520174, 41.44460061147726]}, "properties": {"type": "METRO", "line": "L2", "name": "PEP VENTURA"}},
    {"type": "Feature", "geometry": {"type": "Point", "coordinates": [2.244211818226918, 41.449141712039626]}, "properties": {"type": "METRO", "line": "L2", "name": "BADALONA POMPEU FABRA"}},


    {"type": "Feature", "geometry": {"type": "Point", "coordinates": [2.111891236755942, 41.384358539363504]}, "properties": {"type": "METRO", "line": "L3", "name": "ZONA UNIVERSITÀRIA"}},
    {"type": "Feature", "geometry": {"type": "Point", "coordinates": [2.117875123660265, 41.385915071565016]}, "properties": {"type": "METRO", "line": "L3", "name": "PALAU REIAL"}},
    {"type": "Feature", "geometry": {"type": "Point", "coordinates": [2.1263065758989725, 41.388213725159154]}, "properties": {"type": "METRO", "line": "L3", "name": "MARIA CRISTINA"}},
    {"type": "Feature", "geometry": {"type": "Point", "coordinates": [2.131391760117895, 41.38455431707076]}, "properties": {"type": "METRO", "line": "L3", "name": "LES CORTS"}},
    {"type": "Feature", "geometry": {"type": "Point", "coordinates": [2.136551764900411, 41.382682015868646]}, "properties": {"type": "METRO", "line": "L3", "name": "PLAÇA DEL CENTRE"}},
    {"type": "Feature", "geometry": {"type": "Point", "coordinates": [2.141514699632166, 41.381531496532865]}, "properties": {"type": "METRO", "line": "L3", "name": "SANTS ESTACIÓ"}} ,
    {"type": "Feature", "geometry": {"type": "Point", "coordinates": [2.145480927013976, 41.378574276732564]}, "properties": {"type": "METRO", "line": "L3", "name": "TARRAGONA"}},
    {"type": "Feature", "geometry": {"type": "Point", "coordinates": [2.150303460441094, 41.37516939610728]}, "properties": {"type": "METRO", "line": "L3", "name": "ESPANYA"}},
    {"type": "Feature", "geometry": {"type": "Point", "coordinates": [2.1598821534098223, 41.37515626684299]}, "properties": {"type": "METRO", "line": "L3", "name": "POBLE SEC"}},
    {"type": "Feature", "geometry": {"type": "Point", "coordinates": [2.1707203725813993, 41.37508872346003]}, "properties": {"type": "METRO", "line": "L3", "name": "PARAL·LEL"}},
    {"type": "Feature", "geometry": {"type": "Point", "coordinates": [2.176287229606268, 41.376826871126674]}, "properties": {"type": "METRO", "line": "L3", "name": "DRASSANES"}},
    {"type": "Feature", "geometry": {"type": "Point", "coordinates": [2.173532548351183, 41.380674972043785]}, "properties": {"type": "METRO", "line": "L3", "name": "LICEU"}},
    {"type": "Feature", "geometry": {"type": "Point", "coordinates": [2.1703461620148445, 41.38629523602731]}, "properties": {"type": "METRO", "line": "L3", "name": "CATALUNYA"}},
    {"type": "Feature", "geometry": {"type": "Point", "coordinates": [2.1645726715556175, 41.39290495682759]}, "properties": {"type": "METRO", "line": "L3", "name": "PASSEIG DE GRÀCIA"}},
    {"type": "Feature", "geometry": {"type": "Point", "coordinates": [2.1604759471277823, 41.395764316362495]}, "properties": {"type": "METRO", "line": "L3", "name": "DIAGONAL"}},
    {"type": "Feature", "geometry": {"type": "Point", "coordinates": [2.1528175240534986, 41.402306537691636]}, "properties": {"type": "METRO", "line": "L3", "name": "FONTANA"}},
    {"type": "Feature", "geometry": {"type": "Point", "coordinates": [2.1503938921607877, 41.406608814442]}, "properties": {"type": "METRO", "line": "L3", "name": "LESSEPS"}},
    {"type": "Feature", "geometry": {"type": "Point", "coordinates": [2.1450871167771655, 41.41141065269198]}, "properties": {"type": "METRO", "line": "L3", "name": "VALLCARCA"}},
    {"type": "Feature", "geometry": {"type": "Point", "coordinates": [2.140753188840037, 41.417972883448336]}, "properties": {"type": "METRO", "line": "L3", "name": "PENITENTS"}},
    {"type": "Feature", "geometry": {"type": "Point", "coordinates": [2.142550072131155, 41.42527136641748]}, "properties": {"type": "METRO", "line": "L3", "name": "VALL D'HEBRON"}},
    {"type": "Feature", "geometry": {"type": "Point", "coordinates": [2.1451932507807494, 41.43085599996142]}, "properties": {"type": "METRO", "line": "L3", "name": "MONTBAU"}},
    {"type": "Feature", "geometry": {"type": "Point", "coordinates": [2.1474981252125285, 41.43524449995925]}, "properties": {"type": "METRO", "line": "L3", "name": "MUNDET"}},
    {"type": "Feature", "geometry": {"type": "Point", "coordinates": [2.1563943196784856, 41.43758000314695]}, "properties": {"type": "METRO", "line": "L3", "name": "VALLDAURA"}},
    {"type": "Feature", "geometry": {"type": "Point", "coordinates": [2.1660807544409315, 41.44203344492591]}, "properties": {"type": "METRO", "line": "L3", "name": "CANYELLES"}},
    {"type": "Feature", "geometry": {"type": "Point", "coordinates": [2.176254779954988, 41.447403374180524]}, "properties": {"type": "METRO", "line": "L3", "name": "ROQUETES"}},
    {"type": "Feature", "geometry": {"type": "Point", "coordinates": [2.182744792818884, 41.44923547315545]}, "properties": {"type": "METRO", "line": "L3", "name": "TRINITAT NOVA"}},

    {"type": "Feature", "geometry": {"type": "Point", "coordinates": [2.182744792818884, 41.44923547315545]}, "properties": {"type": "METRO", "line": "L4", "name": "TRINITAT NOVA"}},
    {"type": "Feature", "geometry": {"type": "Point", "coordinates": [2.1789090368322053, 41.4439377665293]}, "properties": {"type": "METRO", "line": "L4", "name": "VIA JÚLIA"}},
    {"type": "Feature", "geometry": {"type": "Point", "coordinates": [2.1734865679333395, 41.43722392256478]}, "properties": {"type": "METRO", "line": "L4", "name": "LLUCMAJOR"}},
    {"type": "Feature", "geometry": {"type": "Point", "coordinates": [2.1776967871616826, 41.42427869934448]}, "properties": {"type": "METRO", "line": "L4", "name": "MARAGALL"}},
    {"type": "Feature", "geometry": {"type": "Point", "coordinates": [2.1745378621934788, 41.41600549114402]}, "properties": {"type": "METRO", "line": "L4", "name": "HOSPITAL DE SANT PAU GUINARDÓ"}},
    {"type": "Feature", "geometry": {"type": "Point", "coordinates": [2.166164602312385, 41.41178453962263]}, "properties": {"type": "METRO", "line": "L4", "name": "ALFONS X"}},
    {"type": "Feature", "geometry": {"type": "Point", "coordinates": [2.163317374199931, 41.40653235534556]}, "properties": {"type": "METRO", "line": "L4", "name": "JOANIC"}},
    {"type": "Feature", "geometry": {"type": "Point", "coordinates": [2.168594148441782, 41.400179270035494]}, "properties": {"type": "METRO", "line": "L4", "name": "VERDAGUER"}},
    {"type": "Feature", "geometry": {"type": "Point", "coordinates": [2.1714083904377612, 41.395269362308014]}, "properties": {"type": "METRO", "line": "L4", "name": "GIRONA"}},
    {"type": "Feature", "geometry": {"type": "Point", "coordinates": [2.1676841883839923, 41.38962447222799]}, "properties": {"type": "METRO", "line": "L4", "name": "PASSEIG DE GRÀCIA"}},
    {"type": "Feature", "geometry": {"type": "Point", "coordinates": [2.17310643256742, 41.388490000516946]}, "properties": {"type": "METRO", "line": "L4", "name": "URQUINAONA"}},
    {"type": "Feature", "geometry": {"type": "Point", "coordinates": [2.1791278067023616, 41.38399370053206]}, "properties": {"type": "METRO", "line": "L4", "name": "JAUME I"}},
    {"type": "Feature", "geometry": {"type": "Point", "coordinates": [2.185662749803024, 41.38268381550357]}, "properties": {"type": "METRO", "line": "L4", "name": "BARCELONETA"}},
    {"type": "Feature", "geometry": {"type": "Point", "coordinates": [2.1927155650801113, 41.388156091702456]}, "properties": {"type": "METRO", "line": "L4", "name": "CIUTADELLA VILA OLIMPICA"}},
    {"type": "Feature", "geometry": {"type": "Point", "coordinates": [2.191501407647297, 41.395310497250755]}, "properties": {"type": "METRO", "line": "L4", "name": "BOGATELL"}},
    {"type": "Feature", "geometry": {"type": "Point", "coordinates": [2.1972499657101796, 41.399266493450845]}, "properties": {"type": "METRO", "line": "L4", "name": "LLACUNA"}},
    {"type": "Feature", "geometry": {"type": "Point", "coordinates": [2.203214796536219, 41.40344975781985]}, "properties": {"type": "METRO", "line": "L4", "name": "POBLENOU"}},
    {"type": "Feature", "geometry": {"type": "Point", "coordinates": [2.2099614685905697, 41.40816428586267]}, "properties": {"type": "METRO", "line": "L4", "name": "SELVA DE MAR"}},
    {"type": "Feature", "geometry": {"type": "Point", "coordinates": [2.2169712691499632, 41.411972055412306]}, "properties": {"type": "METRO", "line": "L4", "name": "EL MARESME / FÒRUM"}},
    {"type": "Feature", "geometry": {"type": "Point", "coordinates": [2.215690271272993, 41.41501639312016]}, "properties": {"type": "METRO", "line": "L4", "name": "BESÒS MAR"}},
    {"type": "Feature", "geometry": {"type": "Point", "coordinates": [2.2103191688956847, 41.42030091503714]}, "properties": {"type": "METRO", "line": "L4", "name": "BESÒS"}},
    {"type": "Feature", "geometry": {"type": "Point", "coordinates": [2.2064741602425126, 41.42397067884454]}, "properties": {"type": "METRO", "line": "L4", "name": "LA PAU"}},


    {"type": "Feature", "geometry": {"type": "Point", "coordinates": [2.0724067661737378, 41.35615999645653]}, "properties": {"type": "METRO", "line": "L5", "name": "CORNELLÀ CENTRE"}},
    {"type": "Feature", "geometry": {"type": "Point", "coordinates": [2.0789068774410495, 41.35771684646395]}, "properties": {"type": "METRO", "line": "L5", "name": "GAVARRA"}},
    {"type": "Feature", "geometry": {"type": "Point", "coordinates": [2.0839967889094053, 41.36276206663678]}, "properties": {"type": "METRO", "line": "L5", "name": "SANT ILDEFONS"}},
    {"type": "Feature", "geometry": {"type": "Point", "coordinates": [2.090784291351685, 41.36606486634577]}, "properties": {"type": "METRO", "line": "L5", "name": "CAN BOIXERES"}},
    {"type": "Feature", "geometry": {"type": "Point", "coordinates": [2.099240967351308, 41.37132765786166]}, "properties": {"type": "METRO", "line": "L5", "name": "CAN VIDALET"}},
    {"type": "Feature", "geometry": {"type": "Point", "coordinates": [2.106777531680029, 41.3735674280285]}, "properties": {"type": "METRO", "line": "L5", "name": "PUBILLA CASES"}},
    {"type": "Feature", "geometry": {"type": "Point", "coordinates": [2.1115875309726566, 41.37596065182565]}, "properties": {"type": "METRO", "line": "L5", "name": "ERNEST LLUCH"}},
    {"type": "Feature", "geometry": {"type": "Point", "coordinates": [2.1181558270459937, 41.37585696855083]}, "properties": {"type": "METRO", "line": "L5", "name": "COLBLANC"}},
    {"type": "Feature", "geometry": {"type": "Point", "coordinates": [2.1273153732529346, 41.375614247963625]}, "properties": {"type": "METRO", "line": "L5", "name": "BADAL"}},
    {"type": "Feature", "geometry": {"type": "Point", "coordinates": [2.13548286616069, 41.375453895709]}, "properties": {"type": "METRO", "line": "L5", "name": "PLAÇA DE SANTS"}},
    {"type": "Feature", "geometry": {"type": "Point", "coordinates": [2.1392963774276814, 41.37970846893678]}, "properties": {"type": "METRO", "line": "L5", "name": "SANTS ESTACIÓ"}},
    {"type": "Feature", "geometry": {"type": "Point", "coordinates": [2.145608274327709, 41.38446375839175]}, "properties": {"type": "METRO", "line": "L5", "name": "ENTENÇA"}},
    {"type": "Feature", "geometry": {"type": "Point", "coordinates": [2.1509870318883597, 41.3890420103404]}, "properties": {"type": "METRO", "line": "L5", "name": "HOSPITAL CLÍNIC"}},
    {"type": "Feature", "geometry": {"type": "Point", "coordinates": [2.1591623950839596, 41.39489649034533]}, "properties": {"type": "METRO", "line": "L5", "name": "DIAGONAL"}},
    {"type": "Feature", "geometry": {"type": "Point", "coordinates": [2.1667308339824998, 41.3987780118665]}, "properties": {"type": "METRO", "line": "L5", "name": "VERDAGUER"}},
    {"type": "Feature", "geometry": {"type": "Point", "coordinates": [2.173879547089167, 41.40412620833251]}, "properties": {"type": "METRO", "line": "L5", "name": "SAGRADA FAMÍLIA"}},
    {"type": "Feature", "geometry": {"type": "Point", "coordinates": [2.176327038602659, 41.41103033525497]}, "properties": {"type": "METRO", "line": "L5", "name": "SANT PAU DOS DE MAIG"}},
    {"type": "Feature", "geometry": {"type": "Point", "coordinates": [2.180941086984177, 41.415008841253716]}, "properties": {"type": "METRO", "line": "L5", "name": "CAMP DE L'ARPA"}},
    {"type": "Feature", "geometry": {"type": "Point", "coordinates": [2.186936943588096, 41.421420128727945]}, "properties": {"type": "METRO", "line": "L5", "name": "LA SAGRERA"}},
    {"type": "Feature", "geometry": {"type": "Point", "coordinates": [2.1816117427727684, 41.423537197914634]}, "properties": {"type": "METRO", "line": "L5", "name": "CONGRÉS"}},
    {"type": "Feature", "geometry": {"type": "Point", "coordinates": [2.17647712858496, 41.42587827513347]}, "properties": {"type": "METRO", "line": "L5", "name": "MARAGALL"}},
    {"type": "Feature", "geometry": {"type": "Point", "coordinates": [2.1748775943420657, 41.42974107538966]}, "properties": {"type": "METRO", "line": "L5", "name": "VIRREI AMAT"}},
    {"type": "Feature", "geometry": {"type": "Point", "coordinates": [2.167762650306863, 41.430833117745024]}, "properties": {"type": "METRO", "line": "L5", "name": "VILAPICINA"}},
    {"type": "Feature", "geometry": {"type": "Point", "coordinates": [2.1611806614505316, 41.429771662434995]}, "properties": {"type": "METRO", "line": "L5", "name": "HORTA"}},
    {"type": "Feature", "geometry": {"type": "Point", "coordinates": [2.155128243797118, 41.42460608993648]}, "properties": {"type": "METRO", "line": "L5", "name": "EL CARMEL"}},
    {"type": "Feature", "geometry": {"type": "Point", "coordinates": [2.148523208344578, 41.421983451652196]}, "properties": {"type": "METRO", "line": "L5", "name": "EL COLL / LA TEIXONERA"}},
    {"type": "Feature", "geometry": {"type": "Point", "coordinates": [2.1414471870688554, 41.425075923207665]}, "properties": {"type": "METRO", "line": "L5", "name": "VALL D'HEBRON"}},


    {"type": "Feature", "geometry": {"type": "Point", "coordinates": [2.16882580708231, 41.387650690195166]}, "properties": {"type": "FGC", "line": "L6", "name": "BARCELONA PLCA. CATALUNYA"}},
    {"type": "Feature", "geometry": {"type": "Point", "coordinates": [2.158549665979335, 41.392676403350684]}, "properties": {"type": "FGC", "line": "L6", "name": "PROVENÇA"}},
    {"type": "Feature", "geometry": {"type": "Point", "coordinates": [2.1676829100834123, 41.39009227716987]}, "properties": {"type": "FGC", "line": "L6", "name": "GRÀCIA"}},
    {"type": "Feature", "geometry": {"type": "Point", "coordinates": [2.1470185420816703, 41.40138136404616]}, "properties": {"type": "FGC", "line": "L6", "name": "SANT GERVASI"}},
    {"type": "Feature", "geometry": {"type": "Point", "coordinates": [2.1427563324952112, 41.39864032692878]}, "properties": {"type": "FGC", "line": "L6", "name": "MUNTANER"}},
    {"type": "Feature", "geometry": {"type": "Point", "coordinates": [2.1351164320298426, 41.39790443496872]}, "properties": {"type": "FGC", "line": "L6", "name": "LA BONANOVA"}},
    {"type": "Feature", "geometry": {"type": "Point", "coordinates": [2.130078121166356, 41.398163424813525]}, "properties": {"type": "FGC", "line": "L6", "name": "LES TRES TORRES"}},
    {"type": "Feature", "geometry": {"type": "Point", "coordinates": [2.124927785219418, 41.39877591585567]}, "properties": {"type": "FGC", "line": "L6", "name": "SARRIÀ"}},


    {"type": "Feature", "geometry": {"type": "Point", "coordinates": [2.16882580708231, 41.387650690195166]}, "properties": {"type": "FGC", "line": "L7", "name": "BARCELONA PLCA. CATALUNYA"}},
    {"type": "Feature", "geometry": {"type": "Point", "coordinates": [2.158549665979335, 41.392676403350684]}, "properties": {"type": "FGC", "line": "L7", "name": "PROVENÇA"}},
    {"type": "Feature", "geometry": {"type": "Point", "coordinates": [2.1676829100834123, 41.39009227716987]}, "properties": {"type": "FGC", "line": "L7", "name": "GRÀCIA"}},
    {"type": "Feature", "geometry": {"type": "Point", "coordinates": [2.147575544374719, 41.40141289263426]}, "properties": {"type": "FGC", "line": "L7", "name": "PLAÇA MOLINA"}},
    {"type": "Feature", "geometry": {"type": "Point", "coordinates": [2.1426196698759385, 41.40360519780606]}, "properties": {"type": "FGC", "line": "L7", "name": "PADUA"}},
    {"type": "Feature", "geometry": {"type": "Point", "coordinates": [2.1392505813696796, 41.40573995755271]}, "properties": {"type": "FGC", "line": "L7", "name": "EL PUTXET"}},
    {"type": "Feature", "geometry": {"type": "Point", "coordinates": [2.137175722793227, 41.41023638088421]}, "properties": {"type": "FGC", "line": "L7", "name": "AVINGUDA DEL TIBIDABO"}},


    {"type": "Feature", "geometry": {"type": "Point", "coordinates": [2.148461291191866, 41.37458420825738]}, "properties": {"type": "FGC", "line": "L8", "name": "PLAÇA ESPANYA"}},
    {"type": "Feature", "geometry": {"type": "Point", "coordinates": [2.1393603383592086, 41.368237277520066]}, "properties": {"type": "FGC", "line": "L8", "name": "MAGÒRIA LA CAMPANA"}},
    {"type": "Feature", "geometry": {"type": "Point", "coordinates": [2.13046532981709, 41.36140020802612]}, "properties": {"type": "FGC", "line": "L8", "name": "ILDEFONS CERDÀ"}},
    {"type": "Feature", "geometry": {"type": "Point", "coordinates": [2.124490601629847, 41.35718804709267]}, "properties": {"type": "FGC", "line": "L8", "name": "EUROPA / FIRA"}},
    {"type": "Feature", "geometry": {"type": "Point", "coordinates": [2.117533256890129, 41.355369396581125]}, "properties": {"type": "FGC", "line": "L8", "name": "GORNAL"}},
    {"type": "Feature", "geometry": {"type": "Point", "coordinates": [2.1116828152823457, 41.361280437841245]}, "properties": {"type": "FGC", "line": "L8", "name": "SANT JOSEP"}},
    {"type": "Feature", "geometry": {"type": "Point", "coordinates": [2.1034244390799004, 41.35780312987073]}, "properties": {"type": "FGC", "line": "L8", "name": "L'HOSPITALET:AV. CARRILET"}},
    {"type": "Feature", "geometry": {"type": "Point", "coordinates": [2.0867482896013736, 41.353019993807926]}, "properties": {"type": "FGC", "line": "L8", "name": "ALMEDA"}},
    {"type": "Feature", "geometry": {"type": "Point", "coordinates": [2.0684300990271516, 41.35185495274866]}, "properties": {"type": "FGC", "line": "L8", "name": "CORNELLÀ:RIERA"}},
    {"type": "Feature", "geometry": {"type": "Point", "coordinates": [2.043261796054973, 41.34815454728118]}, "properties": {"type": "FGC", "line": "L8", "name": "SANT BOI"}},
    {"type": "Feature", "geometry": {"type": "Point", "coordinates": [2.0346916335822876, 41.357720085191204]}, "properties": {"type": "FGC", "line": "L8", "name": "MOLÍ NOU CIUTAT COOPERATIVA"}},

    {"type": "Feature", "geometry": {"type": "Point", "coordinates": [2.186936943588096, 41.421420128727945]}, "properties": {"type": "METRO", "line": "L9N", "name": "LA SAGRERA"}},
    {"type": "Feature", "geometry": {"type": "Point", "coordinates": [2.193403, 41.429742]}, "properties": {"type": "METRO", "line": "L9N", "name": "ONZE DE SETEMBRE"}},
    {"type": "Feature", "geometry": {"type": "Point", "coordinates": [2.204902264511732, 41.43609376675422]}, "properties": {"type": "METRO", "line": "L9N", "name": "BON PASTOR"}},
    {"type": "Feature", "geometry": {"type": "Point", "coordinates": [2.210133119463337, 41.44425515640065]}, "properties": {"type": "METRO", "line": "L9N", "name": "CAN PEIXAUET"}},
    {"type": "Feature", "geometry": {"type": "Point", "coordinates": [2.215910830603854, 41.44669333746421]}, "properties": {"type": "METRO", "line": "L9N", "name": "SANTA ROSA"}},
    {"type": "Feature", "geometry": {"type": "Point", "coordinates": [2.2182296909325405, 41.451603388906136]}, "properties": {"type": "METRO", "line": "L9N", "name": "FONDO"}},
    {"type": "Feature", "geometry": {"type": "Point", "coordinates": [2.2124152143832982, 41.45451214006403]}, "properties": {"type": "METRO", "line": "L9N", "name": "ESGLÉSIA MAJOR"}},
    {"type": "Feature", "geometry": {"type": "Point", "coordinates": [2.205782844559455, 41.45937552702093]}, "properties": {"type": "METRO", "line": "L9N  ", "name": "SINGUERLÍN"}},
    {"type": "Feature", "geometry": {"type": "Point", "coordinates": [2.198552832214578, 41.45726270429347]}, "properties": {"type": "METRO", "line": "L9N", "name": "CAN ZAM"}},


    { "type": "Feature", "geometry": { "type": "Point", "coordinates": [2.071429520791166, 41.288820716403656] }, "properties": { "type": "METRO", "line": "L9S", "name": "AEROPORT T1" }},
    { "type": "Feature", "geometry": { "type": "Point", "coordinates": [2.0732795311539065, 41.3041403702824] }, "properties": { "type": "METRO", "line": "L9S", "name": "AEROPORT T2" }},
    { "type": "Feature", "geometry": { "type": "Point", "coordinates": [2.073410044897379, 41.311663691827064] }, "properties": { "type": "METRO", "line": "L9S", "name": "MAS BLAU" }},
    { "type": "Feature", "geometry": { "type": "Point", "coordinates": [2.0879622907545965, 41.31665620921858] }, "properties": { "type": "METRO", "line": "L9S", "name": "PARC NOU" }},
    { "type": "Feature", "geometry": { "type": "Point", "coordinates": [2.0934754872559096, 41.322126278928195] }, "properties": { "type": "METRO", "line": "L9S", "name": "CENTRIC" }},
    { "type": "Feature", "geometry": { "type": "Point", "coordinates": [2.090018857498509, 41.33146250045509] }, "properties": { "type": "METRO", "line": "L9S", "name": "EL PRAT ESTACIO" }},
    { "type": "Feature", "geometry": { "type": "Point", "coordinates": [2.1030720125395157, 41.32900458282034] }, "properties": { "type": "METRO", "line": "L9S", "name": "LES MORERES" }},
    { "type": "Feature", "geometry": { "type": "Point", "coordinates": [2.1115311149093103, 41.333814159886266] }, "properties": { "type": "METRO", "line": "L9S", "name": "MERCABARNA" }},
    { "type": "Feature", "geometry": { "type": "Point", "coordinates": [2.12756586252279, 41.34162481975172] }, "properties": { "type": "METRO", "line": "L9S", "name": "PARC LOGISTIC" }},
    { "type": "Feature", "geometry": { "type": "Point", "coordinates": [2.1307904812330514, 41.35198783730068] }, "properties": { "type": "METRO", "line": "L9S", "name": "FIRA" }},
    { "type": "Feature", "geometry": { "type": "Point", "coordinates": [2.124490601629847, 41.35718804709267] }, "properties": { "type": "METRO", "line": "L9S", "name": "EUROPA / FIRA" }},
    { "type": "Feature", "geometry": { "type": "Point", "coordinates": [2.118226621574783, 41.360670463745436] }, "properties": { "type": "METRO", "line": "L9S", "name": "CAN TRIES / GORNAL" }},
    { "type": "Feature", "geometry": { "type": "Point", "coordinates": [2.1165005614326264, 41.36830002959065] }, "properties": { "type": "METRO", "line": "L9S", "name": "TORRASSA" }},
    { "type": "Feature", "geometry": { "type": "Point", "coordinates": [2.1181558270459937, 41.37585696855083] }, "properties": { "type": "METRO", "line": "9S", "name": "COLBLANC" }},
    { "type": "Feature", "geometry": { "type": "Point", "coordinates": [2.111891236755942, 41.384358539363504] }, "properties": { "type": "METRO", "line": "9S", "name": "ZONA UNIVERSITÀRIA" }},


    { "type": "Feature", "geometry": { "type": "Point", "coordinates": [2.186936943588096, 41.421420128727945] }, "properties": { "type": "METRO", "line": "L10N", "name": "LA SAGRERA" }},
    { "type": "Feature", "geometry": { "type": "Point", "coordinates": [2.1933979219654063, 41.42981545517915] }, "properties": { "type": "METRO", "line": "L10N", "name": "ONZE DE SETEMBRE" }},
    { "type": "Feature", "geometry": { "type": "Point", "coordinates": [2.2048844586324514, 41.436088785692235] }, "properties": { "type": "METRO", "line": "L10N", "name": "BON PASTOR" }},
    { "type": "Feature", "geometry": { "type": "Point", "coordinates": [2.204902264511732, 41.43609376675422] }, "properties": { "type": "METRO", "line": "L10N", "name": "LLEFIA" }},
    { "type": "Feature", "geometry": { "type": "Point", "coordinates": [2.224699629984763, 41.4428250016938] }, "properties": { "type": "METRO", "line": "L10N", "name": "LA SALUT" }},
    { "type": "Feature", "geometry": { "type": "Point", "coordinates": [2.2337943359641117, 41.44016396740645] }, "properties": { "type": "METRO", "line": "L10N", "name": "GORG" }},


    { "type": "Feature", "geometry": { "type": "Point", "coordinates": [2.1331147264972823, 41.323704612388596] }, "properties": { "type": "METRO", "line": "L10S", "name": "ZAL / RIU VELL" }},
    { "type": "Feature", "geometry": { "type": "Point", "coordinates": [2.1370606383682578, 41.33015107443474] }, "properties": { "type": "METRO", "line": "L10S", "name": "ECOPARK" }},
    { "type": "Feature", "geometry": { "type": "Point", "coordinates": [2.140656569519927, 41.33598062573033] }, "properties": { "type": "METRO", "line": "L10S", "name": "PORT COMMERCIAL LA FACTORIA" }},
    { "type": "Feature", "geometry": { "type": "Point", "coordinates": [2.144959246469807, 41.342969735579175] }, "properties": { "type": "METRO", "line": "L10S", "name": "ZONA FRANCA" }},
    { "type": "Feature", "geometry": { "type": "Point", "coordinates": [2.1420724859026796, 41.355971190615726] }, "properties": { "type": "METRO", "line": "L10S", "name": "FOC" }},
    { "type": "Feature", "geometry": { "type": "Point", "coordinates": [2.1384881778692697, 41.360892135963454] }, "properties": { "type": "METRO", "line": "10S", "name": "FONERIA" }},
    { "type": "Feature", "geometry": { "type": "Point", "coordinates": [2.1323308862100747, 41.3631389653422] }, "properties": { "type": "METRO", "line": "L10S", "name": "CIUTAT DE LA JUSTICIA" }},
    { "type": "Feature", "geometry": { "type": "Point", "coordinates": [2.124092041536052, 41.36135123706997] }, "properties": { "type": "METRO", "line": "L10S", "name": "PROVENCANA" }},
    { "type": "Feature", "geometry": { "type": "Point", "coordinates": [2.118226621574783, 41.360670463745436] }, "properties": { "type": "METRO", "line": "L10S", "name": "CAN TRIES / GORNAL" }},
    { "type": "Feature", "geometry": { "type": "Point", "coordinates": [2.1166199435844755, 41.368355425339324] }, "properties": { "type": "METRO", "line": "L10S", "name": "TORRASSA" }},
    { "type": "Feature", "geometry": { "type": "Point", "coordinates": [2.1181558270459937, 41.37585696855083] }, "properties": { "type": "METRO", "line": "10S", "name": "COLBLANC" }},


    { "type": "Feature", "geometry": { "type": "Point", "coordinates": [2.182744792818884, 41.44923547315545] }, "properties": { "type": "METRO", "line": "L11", "name": "TRINITAT NOVA" }},
    { "type": "Feature", "geometry": { "type": "Point", "coordinates": [2.1851722121647787, 41.45141882731863] }, "properties": { "type": "METRO", "line": "L11", "name": "CASA DE L'AIGUA" }},
    { "type": "Feature", "geometry": { "type": "Point", "coordinates": [2.1807210649867947, 41.459335906440124] }, "properties": { "type": "METRO", "line": "L11", "name": "TORRE BARO / VALLBONA" }},
    { "type": "Feature", "geometry": { "type": "Point", "coordinates": [2.174592771575452, 41.46090143553273] }, "properties": { "type": "METRO", "line": "L11", "name": "CIUTAT MERIDIANA" }},
    { "type": "Feature", "geometry": { "type": "Point", "coordinates": [2.1729581930912265, 41.46264902970509] }, "properties": { "type": "METRO", "line": "L11", "name": "CAN CUIAS" }},

    { "type": "Feature", "geometry": { "type": "Point", "coordinates": [2.124927785219418, 41.39877591585567] }, "properties": { "type": "METRO", "line": "L12", "name": "SARRIÀ" }},
    { "type": "Feature", "geometry": { "type": "Point", "coordinates": [2.1193459976221414, 41.399202037953884] }, "properties": { "type": "METRO", "line": "L12", "name": "REINA ELISENDA" }}

  ]
}
